[
  {
    "_id": "1",
    "title": "Luxury Villa in DHA Lahore",
    "description": "Spacious villa with modern amenities.",
    "price": 500000,
    "type": "sale",
    "images": ["/property/8d135bcc.jpg", "/property/ff4c443c.jpg"],
    "status": "active",
    "city": "Lahore",
    "state": "Punjab",
    "country": "Pakistan",
    "coordinates": { "lat": 31.565607, "lng": 74.31418 },
    "bedrooms": 4,
    "bathrooms": 3,
    "propertyType": "villa",
    "purpose": "residential"
  },
  {
    "_id": "2",
    "title": "Apartment in Gulberg",
    "description": "Cozy 2-bed apartment.",
    "price": 120000,
    "type": "sale",
    "images": ["/property/8d135bcc.jpg", "/property/ff4c443c.jpg"],
    "status": "pending",
    "city": "Lahore",
    "state": "Punjab",
    "country": "Pakistan",
    "coordinates": { "lat": 31.5172, "lng": 74.3526 },
    "bedrooms": 2,
    "bathrooms": 2,
    "propertyType": "apartment",
    "purpose": "residential"
  },
  {
    "_id": "3",
    "title": "House for Rent in Johar Town",
    "description": "3-bed house with garden.",
    "price": 800,
    "type": "rent",
    "images": ["/property/8d135bcc.jpg", "/property/ff4c443c.jpg"],
    "status": "active",
    "city": "Lahore",
    "state": "Punjab",
    "country": "Pakistan",
    "coordinates": { "lat": 31.4569, "lng": 74.2865 },
    "bedrooms": 3,
    "bathrooms": 2,
    "propertyType": "house",
    "purpose": "residential"
  },
  {
    "_id": "4",
    "title": "Commercial Office in Model Town",
    "description": "Prime location office space.",
    "price": 300000,
    "type": "sale",
    "images": ["/property/8d135bcc.jpg", "/property/ff4c443c.jpg"],
    "status": "active",
    "city": "Lahore",
    "state": "Punjab",
    "country": "Pakistan",
    "coordinates": { "lat": 31.4891, "lng": 74.3254 },
    "bedrooms": 0,
    "bathrooms": 1,
    "propertyType": "office",
    "purpose": "commercial"
  },
  {
    "_id": "5",
    "title": "Apartment for Rent in Cantt",
    "description": "1-bed furnished apartment.",
    "price": 500,
    "type": "rent",
    "images": ["/property/8d135bcc.jpg", "/property/ff4c443c.jpg"],
    "status": "active",
    "city": "Lahore",
    "state": "Punjab",
    "country": "Pakistan",
    "coordinates": { "lat": 31.5489, "lng": 74.3492 },
    "bedrooms": 1,
    "bathrooms": 1,
    "propertyType": "apartment",
    "purpose": "residential"
  },
  {
    "_id": "6",
    "title": "Villa in Bahria Town",
    "description": "Luxury villa with pool.",
    "price": 700000,
    "type": "sale",
    "images": ["/property/8d135bcc.jpg", "/property/ff4c443c.jpg"],
    "status": "pending",
    "city": "Lahore",
    "state": "Punjab",
    "country": "Pakistan",
    "coordinates": { "lat": 31.3738, "lng": 74.1853 },
    "bedrooms": 5,
    "bathrooms": 4,
    "propertyType": "villa",
    "purpose": "residential"
  },
  {
    "_id": "7",
    "title": "House in Wapda Town",
    "description": "Spacious 4-bed house.",
    "price": 250000,
    "type": "sale",
    "images": ["/property/8d135bcc.jpg", "/property/ff4c443c.jpg"],
    "status": "active",
    "city": "Lahore",
    "state": "Punjab",
    "country": "Pakistan",
    "coordinates": { "lat": 31.4512, "lng": 74.2978 },
    "bedrooms": 4,
    "bathrooms": 3,
    "propertyType": "house",
    "purpose": "residential"
  },
  {
    "_id": "8",
    "title": "Apartment in Defence",
    "description": "Modern 3-bed apartment.",
    "price": 180000,
    "type": "sale",
    "images": ["/property/8d135bcc.jpg", "/property/ff4c443c.jpg"],
    "status": "active",
    "city": "Lahore",
    "state": "Punjab",
    "country": "Pakistan",
    "coordinates": { "lat": 31.4800, "lng": 74.3800 },
    "bedrooms": 3,
    "bathrooms": 2,
    "propertyType": "apartment",
    "purpose": "residential"
  },
  {
    "_id": "9",
    "title": "Office Space in Gulberg",
    "description": "Commercial office with parking.",
    "price": 400000,
    "type": "sale",
    "images": ["/property/8d135bcc.jpg", "/property/ff4c443c.jpg"],
    "status": "pending",
    "city": "Lahore",
    "state": "Punjab",
    "country": "Pakistan",
    "coordinates": { "lat": 31.5123, "lng": 74.3467 },
    "bedrooms": 0,
    "bathrooms": 2,
    "propertyType": "office",
    "purpose": "commercial"
  },
  {
    "_id": "10",
    "title": "House for Rent in Faisal Town",
    "description": "2-bed house with garden.",
    "price": 600,
    "type": "rent",
    "images": ["/property/8d135bcc.jpg", "/property/ff4c443c.jpg"],
    "status": "active",
    "city": "Lahore",
    "state": "Punjab",
    "country": "Pakistan",
    "coordinates": { "lat": 31.4654, "lng": 74.2912 },
    "bedrooms": 2,
    "bathrooms": 2,
    "propertyType": "house",
    "purpose": "residential"
  },
  {
    "_id": "11",
    "title": "Villa in Valencia",
    "description": "Luxury 5-bed villa.",
    "price": 850000,
    "type": "sale",
    "images": ["/property/8d135bcc.jpg", "/property/ff4c443c.jpg"],
    "status": "active",
    "city": "Lahore",
    "state": "Punjab",
    "country": "Pakistan",
    "coordinates": { "lat": 31.3945, "lng": 74.2001 },
    "bedrooms": 5,
    "bathrooms": 4,
    "propertyType": "villa",
    "purpose": "residential"
  },
  {
    "_id": "12",
    "title": "Apartment in Eden",
    "description": "1-bed furnished apartment.",
    "price": 90000,
    "type": "sale",
    "images": ["/property/8d135bcc.jpg", "/property/ff4c443c.jpg"],
    "status": "pending",
    "city": "Lahore",
    "state": "Punjab",
    "country": "Pakistan",
    "coordinates": { "lat": 31.5023, "lng": 74.3600 },
    "bedrooms": 1,
    "bathrooms": 1,
    "propertyType": "apartment",
    "purpose": "residential"
  },
  {
    "_id": "13",
    "title": "House in Allama Iqbal Town",
    "description": "3-bed house with parking.",
    "price": 200000,
    "type": "sale",
    "images": ["/property/8d135bcc.jpg", "/property/ff4c443c.jpg"],
    "status": "active",
    "city": "Lahore",
    "state": "Punjab",
    "country": "Pakistan",
    "coordinates": { "lat": 31.5234, "lng": 74.3156 },
    "bedrooms": 3,
    "bathrooms": 2,
    "propertyType": "house",
    "purpose": "residential"
  },
  {
    "_id": "14",
    "title": "Office in MM Alam Road",
    "description": "Premium office space.",
    "price": 450000,
    "type": "sale",
    "images": ["/property/8d135bcc.jpg", "/property/ff4c443c.jpg"],
    "status": "active",
    "city": "Lahore",
    "state": "Punjab",
    "country": "Pakistan",
    "coordinates": { "lat": 31.5145, "lng": 74.3512 },
    "bedrooms": 0,
    "bathrooms": 1,
    "propertyType": "office",
    "purpose": "commercial"
  },
  {
    "_id": "15",
    "title": "Apartment for Rent in Garden Town",
    "description": "2-bed apartment.",
    "price": 700,
    "type": "rent",
    "images": ["/property/8d135bcc.jpg", "/property/ff4c443c.jpg"],
    "status": "active",
    "city": "Lahore",
    "state": "Punjab",
    "country": "Pakistan",
    "coordinates": { "lat": 31.5321, "lng": 74.3367 },
    "bedrooms": 2,
    "bathrooms": 2,
    "propertyType": "apartment",
    "purpose": "residential"
  },
  {
    "_id": "16",
    "title": "Villa in Lake City",
    "description": "Luxury villa with lake view.",
    "price": 900000,
    "type": "sale",
    "images": ["/property/8d135bcc.jpg", "/property/ff4c443c.jpg"],
    "status": "pending",
    "city": "Lahore",
    "state": "Punjab",
    "country": "Pakistan",
    "coordinates": { "lat": 31.4156, "lng": 74.2234 },
    "bedrooms": 6,
    "bathrooms": 5,
    "propertyType": "villa",
    "purpose": "residential"
  },
  {
    "_id": "17",
    "title": "House in Township",
    "description": "4-bed house with garage.",
    "price": 300000,
    "type": "sale",
    "images": ["/property/8d135bcc.jpg", "/property/ff4c443c.jpg"],
    "status": "active",
    "city": "Lahore",
    "state": "Punjab",
    "country": "Pakistan",
    "coordinates": { "lat": 31.4478, "lng": 74.2790 },
    "bedrooms": 4,
    "bathrooms": 3,
    "propertyType": "house",
    "purpose": "residential"
  },
  {
    "_id": "18",
    "title": "Apartment in Shadman",
    "description": "3-bed modern apartment.",
    "price": 150000,
    "type": "sale",
    "images": ["/property/8d135bcc.jpg", "/property/ff4c443c.jpg"],
    "status": "active",
    "city": "Lahore",
    "state": "Punjab",
    "country": "Pakistan",
    "coordinates": { "lat": 31.5378, "lng": 74.3234 },
    "bedrooms": 3,
    "bathrooms": 2,
    "propertyType": "apartment",
    "purpose": "residential"
  },
  {
    "_id": "19",
    "title": "Commercial Space in Liberty",
    "description": "Shop with high footfall.",
    "price": 600000,
    "type": "sale",
    "images": ["/property/8d135bcc.jpg", "/property/ff4c443c.jpg"],
    "status": "pending",
    "city": "Lahore",
    "state": "Punjab",
    "country": "Pakistan",
    "coordinates": { "lat": 31.5090, "lng": 74.3478 },
    "bedrooms": 0,
    "bathrooms": 1,
    "propertyType": "commercial",
    "purpose": "commercial"
  },
  {
    "_id": "20",
    "title": "House for Rent in Raiwind",
    "description": "2-bed house near highway.",
    "price": 400,
    "type": "rent",
    "images": ["/property/8d135bcc.jpg", "/property/ff4c443c.jpg"],
    "status": "active",
    "city": "Lahore",
    "state": "Punjab",
    "country": "Pakistan",
    "coordinates": { "lat": 31.2578, "lng": 74.2156 },
    "bedrooms": 2,
    "bathrooms": 1,
    "propertyType": "house",
    "purpose": "residential"
  }
]